stationId,latitude,longitude,Notes
aotizhongxin,39.9829,116.3974,Urban
changping,40.21965,116.2255,Urban
dingling,40.2925,116.2204,Cross Reference
dongsi,39.9296,116.4170,Urban
guanyuan,39.9293,116.3399,Urban
gucheng,39.9144,116.1841,Urban
huairou,40.3288,116.6280,Rural
nongzhanguan,39.8040,116.4612,Urban
shunyi,40.1270,116.6552,Rural
tiantan,39.8865,116.4074,Urban
wanliu,39.9875,116.2873,Urban
wanshouxigong,39.8785,116.3526,Urban
